{"type":"FeatureCollection","features":[{"type":"Feature","geometry":{"type":"Point","coordinates":[40.3884,32.3955]},"properties":{"id":"marker0","type":"volcanoes","icon":"ğŸŒ‹","x":2154.35,"y":1220.77,"name":"Mount Perster","legend":"Erupting volcano. Height: 2113922820157210600 m."}},{"type":"Feature","geometry":{"type":"Point","coordinates":[17.8895,33.2365]},"properties":{"id":"marker1","type":"water-sources","icon":"ğŸ’§","x":1360.9,"y":1191.1,"name":"Merlowbig Purifying Well","legend":"This legendary water source is whispered about in ancient tales and believed to possess mystical properties. The spring emanates crystal-clear water, shimmering with an otherworldly iridescence that sparkles even in the dimmest light."}},{"type":"Feature","geometry":{"type":"Point","coordinates":[4.9481,47.526]},"properties":{"id":"marker2","type":"sacred-pineries","icon":"ğŸŒ²","x":904.51,"y":687,"name":"Sunterev Pinery","legend":"A pinery sacred to local Turchian Spirits."}},{"type":"Feature","geometry":{"type":"Point","coordinates":[46.9068,63.423]},"properties":{"id":"marker3","type":"statues","icon":"ğŸ—¿","x":2384.23,"y":126.19,"name":"Nosmouthel Effigy","legend":"An ancient effigy. It has an inscription, but no one can translate it:\n        <div style=\"font-size: 1.8em; line-break: anywhere;\">à¼¤à¼Šà¼‡à¼¤à¼ºà¼‡à¼¶à¼°à¼½à¼€à¼ºà¼™à¼à¼ºà¼à¼´à¼šà¼‘à¼ƒà¼Šà¼•à¼·à¼°à¼®à¼¢à¼—à¼©à¼´à¼­à¼®à¼¹à¼™à¼ˆà¼‚à¼²à¼‰à¼µà¼¤à¼˜à¼¢à¼¥à¼¶à¼«à¼„à¼§à¼µà¼€à¼œà¼ªà¼¦à¼¡à¼‡à¼¤à¼®à¼’à¼¼à¼¬à¼£à¼›à¼‘à¼¢à¼ªà¼²à¼ˆà¼±à¼€à¼ºà¼‰à¼†à¼¸à¼”à¼“à¼°à¼¨à¼¶à¼˜à¼Šà¼§à¼Šà¼•à¼à¼ª</div>"}},{"type":"Feature","geometry":{"type":"Point","coordinates":[46.5221,34.1354]},"properties":{"id":"marker4","type":"statues","icon":"ğŸ—¿","x":2370.66,"y":1159.39,"name":"Orwickwar Runestone","legend":"An ancient runestone. It has an inscription, but no one can translate it:\n        <div style=\"font-size: 1.8em; line-break: anywhere;\">\udc01\udc0e \udc13\udc0e\ud802ğ ´\udc0d\udc31\udc23ğ ˜\udc14\ud802\ud802ğ ´\udc03\udc1cğ šğ ¿\udc30\udc15ğ –\udc15\udc0ağ ¿\udc18ğ “\ud802ğ ˆğ  ğ  \ud802</div>"}},{"type":"Feature","geometry":{"type":"Point","coordinates":[48.5696,35.282]},"properties":{"id":"marker5","type":"statues","icon":"ğŸ—¿","x":2442.87,"y":1118.94,"name":"Bafordgeton Monolith","legend":"An ancient monolith. It has an inscription, but no one can translate it:\n        <div style=\"font-size: 1.8em; line-break: anywhere;\">à¼ à¼¯à¼’à¼ªà¼“à¼³à¼ªà¼«à¼½à¼°à¼µà¼šà¼¬à¼ à¼¨à¼–à¼—à¼¦à¼–à¼¯à¼†à¼‚à¼ªà¼°à¼›à¼»à¼µà¼ªà¼¡à¼²à¼ˆà¼£à¼µà¼¯à¼·à¼”à¼˜à¼¯à¼«à¼¯</div>"}},{"type":"Feature","geometry":{"type":"Point","coordinates":[47.9308,45.1653]},"properties":{"id":"marker6","type":"statues","icon":"ğŸ—¿","x":2420.34,"y":770.28,"name":"Rotham Runestone","legend":"An ancient runestone. It has an inscription, but no one can translate it:\n        <div style=\"font-size: 1.8em; line-break: anywhere;\">áˆá‹ˆáˆ áŒˆáŠ¨á‰°áˆ á‰€áŒ¸ áˆ€áˆáŒ¸á‹˜á‹°á‹¨á‰€áŒ áˆˆáŠ áŠá‹°á‹ˆáŒ¸áˆ¨áˆáŠ€áŒ¸áˆ˜áˆ áˆ˜áŠ€á‰ á‰€áŒ áŒ¸á‹°áŠ¨áŠáˆˆáŒ¸á‹°á‰°áŠá‹°áŠ€á‹°áˆˆáŒ¸áŠ áá‰° áŒ áŠá‰°áŒ á‰€á‹áˆˆáŠ€á‰°áŠ¨áˆ°</div>"}},{"type":"Feature","geometry":{"type":"Point","coordinates":[13.7608,56.594]},"properties":{"id":"marker7","type":"statues","icon":"ğŸ—¿","x":1215.3,"y":367.1,"name":"Kingtonver Megalith","legend":"An ancient megalith. It has an inscription, but no one can translate it:\n        <div style=\"font-size: 1.8em; line-break: anywhere;\">â²¶â³©â³ƒâ³”â²¸â³â³§â³â³§â³’â³«â³â³â³ªâ³¹â³”â²²â²ºâ³â³’â³â³’â³–â³¢â²²â³’â³¤ â³‚â²¶â³Šâ³œâ³ƒâ³Œâ³–â³¤â²º â²¼â³«â³²â³œâ³­</div>"}},{"type":"Feature","geometry":{"type":"Point","coordinates":[4.5202,47.0628]},"properties":{"id":"marker8","type":"ruins","icon":"ğŸº","x":889.42,"y":703.34,"name":"Ruined Fortress","legend":"Ruins of an ancient fortress. Untold riches may lie within."}},{"type":"Feature","geometry":{"type":"Point","coordinates":[3.4067,45.6585]},"properties":{"id":"marker9","type":"libraries","icon":"ğŸ“š","x":850.15,"y":752.88,"name":"Sanyolpyo Library","legend":"A vast collection of knowledge, including many rare and ancient tomes."}},{"type":"Feature","geometry":{"type":"Point","coordinates":[19.7048,35.784]},"properties":{"id":"marker10","type":"migration","icon":"ğŸ—","x":1424.92,"y":1101.23,"name":"Mooses migration","legend":"A huge group of mooses are migrating, whether part of their annual routine, or something more extraordinary."}},{"type":"Feature","geometry":{"type":"Point","coordinates":[15.769,62.9127]},"properties":{"id":"marker11","type":"migration","icon":"ğŸ—","x":1286.12,"y":144.19,"name":"Scorpions migration","legend":"A huge group of scorpions are migrating, whether part of their annual routine, or something more extraordinary."}},{"type":"Feature","geometry":{"type":"Point","coordinates":[43.9108,31.0867]},"properties":{"id":"marker12","type":"migration","icon":"ğŸ—","x":2278.57,"y":1266.94,"name":"Rats migration","legend":"A huge group of rats are migrating, whether part of their annual routine, or something more extraordinary."}},{"type":"Feature","geometry":{"type":"Point","coordinates":[7.8912,35.1357]},"properties":{"id":"marker13","type":"migration","icon":"ğŸ—","x":1008.3,"y":1124.1,"name":"Mantises migration","legend":"A huge group of mantises are migrating, whether part of their annual routine, or something more extraordinary."}},{"type":"Feature","geometry":{"type":"Point","coordinates":[43.3292,60.3513]},"properties":{"id":"marker14","type":"migration","icon":"ğŸ—","x":2258.06,"y":234.55,"name":"Bisons migration","legend":"A huge group of bisons are migrating, whether part of their annual routine, or something more extraordinary."}},{"type":"Feature","geometry":{"type":"Point","coordinates":[-0.3326,40.7991]},"properties":{"id":"marker15","type":"migration","icon":"ğŸ—","x":718.28,"y":924.31,"name":"Ibises migration","legend":"A huge group of ibises are migrating, whether part of their annual routine, or something more extraordinary."}},{"type":"Feature","geometry":{"type":"Point","coordinates":[44.7685,57.6207]},"properties":{"id":"marker16","type":"migration","icon":"ğŸ—","x":2308.82,"y":330.88,"name":"Badgers migration","legend":"A huge group of badgers are migrating, whether part of their annual routine, or something more extraordinary."}},{"type":"Feature","geometry":{"type":"Point","coordinates":[32.0991,37.7249]},"properties":{"id":"marker17","type":"necropolises","icon":"ğŸª¦","x":1862.02,"y":1032.76,"name":"Mermingra Crypt","legend":"Rising from the desolate landscape, this sinister necropolis is a testament to necromantic power. Its skeletal spires cast ominous shadows, concealing forbidden knowledge and arcane secrets."}},{"type":"Feature","geometry":{"type":"Point","coordinates":[33.429,55.6453]},"properties":{"id":"marker18","type":"necropolises","icon":"ğŸª¦","x":1908.92,"y":400.57,"name":"Malworthes Graveyard","legend":"This ethereal necropolis seems suspended between the realms of the living and the dead. Wisps of mist dance around the tombstones, while haunting melodies linger in the air, commemorating the departed."}},{"type":"Feature","geometry":{"type":"Point","coordinates":[45.7513,48.0776]},"properties":{"id":"marker19","type":"necropolises","icon":"ğŸª¦","x":2343.48,"y":667.54,"name":"Wodbury Mausoleum","legend":"A desolate necropolis where an eerie stillness reigns. Time seems frozen amidst the decaying mausoleums, and the silence is broken only by the whispers of the wind and the rustle of tattered banners."}},{"type":"Feature","geometry":{"type":"Point","coordinates":[24.971,44.3123]},"properties":{"id":"marker20","type":"necropolises","icon":"ğŸª¦","x":1610.64,"y":800.37,"name":"Blandhurst Sepulchre","legend":"A towering necropolis adorned with macabre sculptures and guarded by formidable undead sentinels. Its ancient halls house the remains of fallen heroes, entombed alongside their cherished relics."}},{"type":"Feature","geometry":{"type":"Point","coordinates":[-3.3267,37.7734]},"properties":{"id":"marker21","type":"necropolises","icon":"ğŸª¦","x":612.69,"y":1031.05,"name":"Kingmoney Necropolis","legend":"A foreboding necropolis perched atop a jagged cliff, overlooking a desolate wasteland. Its towering walls harbor restless spirits, and the imposing gates bear the marks of countless battles and ancient curses."}},{"type":"Feature","geometry":{"type":"Point","coordinates":[33.972,48.3548]},"properties":{"id":"marker22","type":"necropolises","icon":"ğŸª¦","x":1928.07,"y":657.76,"name":"Berham Sepulchre","legend":"A sprawling necropolis built within a labyrinthine network of catacombs. Its halls are lined with countless alcoves, each housing the remains of the departed, while the distant sound of rattling bones fills the air."}},{"type":"Feature","geometry":{"type":"Point","coordinates":[48.9419,45.4451]},"properties":{"id":"marker23","type":"necropolises","icon":"ğŸª¦","x":2456,"y":760.41,"name":"Matesin Graveyard","legend":"A labyrinthine necropolis where each step echoes with haunting murmurs. The walls are adorned with ancient runes, and restless spirits guide or hinder those who dare to delve into its depths."}},{"type":"Feature","geometry":{"type":"Point","coordinates":[41.7756,43.587]},"properties":{"id":"marker24","type":"encounters","icon":"ğŸ§™","x":2203.27,"y":825.96,"name":"Random encounter","legend":"<div>You have encountered a character.</div><iframe src=\"https://deorum.vercel.app/encounter/5511\" width=\"375\" height=\"600\" sandbox=\"allow-scripts allow-same-origin allow-popups\"></iframe>"}}]}
